{
    "created_at": "2026-07-03T11:01:06.236584+00:00",
    "source": "ARSO - Agencija RS za okolje",
    "records_count": 23,
    "records": [
        {
            "station_code": "E403",
            "station_name": "LJ Bežigrad",
            "latitude": 46.0655449,
            "longitude": 14.5127203,
            "measured_from": "2026-07-03T11:00:00",
            "measured_to": "2026-07-03T12:00:00",
            "pm10": 13.0,
            "pm2_5": 8.0,
            "no2": 7.0,
            "o3": 120.0,
            "co": 0.1,
            "so2": null
        },
        {
            "station_code": "E405",
            "station_name": "LJ Celovška",
            "latitude": 46.0720916,
            "longitude": 14.4871183,
            "measured_from": "2026-07-03T11:00:00",
            "measured_to": "2026-07-03T12:00:00",
            "pm10": 17.0,
            "pm2_5": 8.0,
            "no2": 19.0,
            "o3": null,
            "co": null,
            "so2": null
        },
        {
            "station_code": "E404",
            "station_name": "LJ Vič",
            "latitude": 46.037487,
            "longitude": 14.4892717,
            "measured_from": "2026-07-03T11:00:00",
            "measured_to": "2026-07-03T12:00:00",
            "pm10": 15.0,
            "pm2_5": 7.0,
            "no2": null,
            "o3": null,
            "co": null,
            "so2": null
        },
        {
            "station_code": "E417",
            "station_name": "Kranj",
            "latitude": 46.2417883,
            "longitude": 14.3622383,
            "measured_from": "2026-07-03T11:00:00",
            "measured_to": "2026-07-03T12:00:00",
            "pm10": 10.0,
            "pm2_5": 5.0,
            "no2": null,
            "o3": null,
            "co": null,
            "so2": null
        },
        {
            "station_code": "E407",
            "station_name": "MB Titova",
            "latitude": 46.5588708,
            "longitude": 15.6513026,
            "measured_from": "2026-07-03T11:00:00",
            "measured_to": "2026-07-03T12:00:00",
            "pm10": 13.0,
            "pm2_5": 7.0,
            "no2": 24.0,
            "o3": null,
            "co": null,
            "so2": null
        },
        {
            "station_code": "E408",
            "station_name": "MB Vrbanski",
            "latitude": 46.5683507,
            "longitude": 15.6261221,
            "measured_from": "2026-07-03T11:00:00",
            "measured_to": "2026-07-03T12:00:00",
            "pm10": 10.0,
            "pm2_5": 6.0,
            "no2": 2.0,
            "o3": 119.0,
            "co": null,
            "so2": null
        },
        {
            "station_code": "E411",
            "station_name": "CE bolnica",
            "latitude": 46.2345142,
            "longitude": 15.262476,
            "measured_from": "2026-07-03T11:00:00",
            "measured_to": "2026-07-03T12:00:00",
            "pm10": 16.0,
            "pm2_5": 6.0,
            "no2": 15.0,
            "o3": 102.0,
            "co": null,
            "so2": 3.0
        },
        {
            "station_code": "E412",
            "station_name": "CE Ljubljanska",
            "latitude": 46.2356572,
            "longitude": 15.2462352,
            "measured_from": "2026-07-03T11:00:00",
            "measured_to": "2026-07-03T12:00:00",
            "pm10": 12.0,
            "pm2_5": 6.0,
            "no2": null,
            "o3": null,
            "co": null,
            "so2": null
        },
        {
            "station_code": "E801",
            "station_name": "Ptuj",
            "latitude": 46.425503,
            "longitude": 15.8765097,
            "measured_from": "2026-07-03T11:00:00",
            "measured_to": "2026-07-03T12:00:00",
            "pm10": 14.0,
            "pm2_5": 7.0,
            "no2": null,
            "o3": null,
            "co": null,
            "so2": null
        },
        {
            "station_code": "E409",
            "station_name": "MS Rakičan",
            "latitude": 46.6520864,
            "longitude": 16.1913166,
            "measured_from": "2026-07-03T11:00:00",
            "measured_to": "2026-07-03T12:00:00",
            "pm10": 29.0,
            "pm2_5": 8.0,
            "no2": null,
            "o3": 124.0,
            "co": null,
            "so2": null
        },
        {
            "station_code": "E410",
            "station_name": "MS Cankarjeva",
            "latitude": 46.6577607,
            "longitude": 16.1592329,
            "measured_from": "2026-07-03T11:00:00",
            "measured_to": "2026-07-03T12:00:00",
            "pm10": 13.0,
            "pm2_5": 6.0,
            "no2": null,
            "o3": null,
            "co": null,
            "so2": null
        },
        {
            "station_code": "E804",
            "station_name": "IB Gregorčičeva",
            "latitude": 45.5673216,
            "longitude": 14.2428996,
            "measured_from": "2026-07-03T11:00:00",
            "measured_to": "2026-07-03T12:00:00",
            "pm10": 8.0,
            "pm2_5": 5.0,
            "no2": null,
            "o3": null,
            "co": null,
            "so2": null
        },
        {
            "station_code": "E421",
            "station_name": "NG Grčna",
            "latitude": 45.9555691,
            "longitude": 13.6523898,
            "measured_from": "2026-07-03T11:00:00",
            "measured_to": "2026-07-03T12:00:00",
            "pm10": 8.0,
            "pm2_5": 5.0,
            "no2": null,
            "o3": 110.0,
            "co": null,
            "so2": null
        },
        {
            "station_code": "E424",
            "station_name": "Otlica",
            "latitude": 45.9376683,
            "longitude": 13.9115633,
            "measured_from": "2026-07-03T11:00:00",
            "measured_to": "2026-07-03T12:00:00",
            "pm10": null,
            "pm2_5": null,
            "no2": null,
            "o3": 120.0,
            "co": null,
            "so2": null
        },
        {
            "station_code": "E423",
            "station_name": "Koper",
            "latitude": 45.5430119,
            "longitude": 13.7135237,
            "measured_from": "2026-07-03T11:00:00",
            "measured_to": "2026-07-03T12:00:00",
            "pm10": 10.0,
            "pm2_5": 6.0,
            "no2": 9.0,
            "o3": 141.0,
            "co": null,
            "so2": null
        },
        {
            "station_code": "E413",
            "station_name": "Trbovlje",
            "latitude": 46.1575084,
            "longitude": 15.0539505,
            "measured_from": "2026-07-03T11:00:00",
            "measured_to": "2026-07-03T12:00:00",
            "pm10": 9.0,
            "pm2_5": 5.0,
            "no2": null,
            "o3": null,
            "co": null,
            "so2": null
        },
        {
            "station_code": "E415",
            "station_name": "Zagorje",
            "latitude": 46.1311142,
            "longitude": 14.9961152,
            "measured_from": "2026-07-03T11:00:00",
            "measured_to": "2026-07-03T12:00:00",
            "pm10": 11.0,
            "pm2_5": 6.0,
            "no2": 17.0,
            "o3": 101.0,
            "co": null,
            "so2": 2.0
        },
        {
            "station_code": "E414",
            "station_name": "Hrastnik",
            "latitude": 46.1439131,
            "longitude": 15.0832944,
            "measured_from": "2026-07-03T11:00:00",
            "measured_to": "2026-07-03T12:00:00",
            "pm10": 25.0,
            "pm2_5": 7.0,
            "no2": null,
            "o3": null,
            "co": null,
            "so2": null
        },
        {
            "station_code": "E418",
            "station_name": "Novo mesto",
            "latitude": 45.8018182,
            "longitude": 15.1772615,
            "measured_from": "2026-07-03T11:00:00",
            "measured_to": "2026-07-03T12:00:00",
            "pm10": 10.0,
            "pm2_5": 5.0,
            "no2": 2.0,
            "o3": 132.0,
            "co": null,
            "so2": null
        },
        {
            "station_code": "E802",
            "station_name": "Črna na Koroškem",
            "latitude": 46.4703304,
            "longitude": 14.8501888,
            "measured_from": "2026-07-03T11:00:00",
            "measured_to": "2026-07-03T12:00:00",
            "pm10": 25.0,
            "pm2_5": 9.0,
            "no2": null,
            "o3": null,
            "co": null,
            "so2": null
        },
        {
            "station_code": "E803",
            "station_name": "Črnomelj Loka",
            "latitude": 45.5669494,
            "longitude": 15.1879382,
            "measured_from": "2026-07-03T11:00:00",
            "measured_to": "2026-07-03T12:00:00",
            "pm10": 7.0,
            "pm2_5": 4.0,
            "no2": null,
            "o3": null,
            "co": null,
            "so2": null
        },
        {
            "station_code": "E420",
            "station_name": "Iskrba",
            "latitude": 45.5610998,
            "longitude": 14.8580675,
            "measured_from": "2026-07-03T11:00:00",
            "measured_to": "2026-07-03T12:00:00",
            "pm10": 8.0,
            "pm2_5": 5.0,
            "no2": null,
            "o3": 117.0,
            "co": null,
            "so2": 3.0
        },
        {
            "station_code": "E419",
            "station_name": "Krvavec",
            "latitude": 46.2973516,
            "longitude": 14.5333148,
            "measured_from": "2026-07-03T11:00:00",
            "measured_to": "2026-07-03T12:00:00",
            "pm10": null,
            "pm2_5": null,
            "no2": null,
            "o3": null,
            "co": null,
            "so2": null
        }
    ]
}